[
    {
        "name": "名寄駐屯地",
        "lat": 44.3835728766676,
        "lng": 142.43576583943155,
        "address": "〒096-0078 北海道名寄市内淵８４",
        "affiliation": "北部方面隊/第2師団/第1高射特科団"
    },
		    {
		        "name": "稚内分屯地",
		        "lat": 45.44043208658265,
		        "lng": 141.65345826999334,
		        "address": "〒097-0025 北海道稚内市恵比須５丁目２−１",
		        "affiliation": "北部方面隊/第2師団/名寄駐屯地"
		    },
		    {
		        "name": "礼文分屯地",
		        "lat": 45.43628998547617,
		        "lng": 141.05184006999204,
		        "address": "〒097-1111 北海道礼文郡礼文町船泊村字沼ノ沢",
		        "affiliation": "北部方面隊/第2師団/名寄駐屯地"
		    },
    {
        "name": "留萌駐屯地",
        "lat": 43.93116542233415,
        "lng": 141.6677210716804,
        "address": "〒077-0015 北海道留萌市緑ケ丘町１丁目６番地",
        "affiliation": "北部方面隊/第2師団"
    },
    {
        "name": "遠軽駐屯地",
        "lat": 44.053713431472396,
        "lng": 143.54677039921643,
        "address": "〒099-0411 北海道紋別郡遠軽町向遠軽",
        "affiliation": "北部方面隊/第2師団"
    },
    {
        "name": "旭川駐屯地",
        "lat": 43.79334689767872,
        "lng": 142.3685776992134,
        "address": "〒070-0902 北海道旭川市春光町 国有無番地",
        "affiliation": "北部方面隊/第2師団/北部方面混成団"
    },
		    {
		        "name": "沼田分屯地",
		        "lat": 43.83291338318613,
		        "lng": 141.95364157139636,
		        "address": "〒078-2211 北海道雨竜郡沼田町沼田1142番地1",
		        "affiliation": "北部方面隊/第2師団/旭川駐屯地/北海道補給処(沼田弾薬支処)"
		    },
		    {
		        "name": "近文台分屯地",
		        "lat": 43.80399415723396,
		        "lng": 142.32952364054677,
		        "address": "〒070-0000 北海道旭川市近文７線",
		        "affiliation": "北部方面隊/第2師団/旭川駐屯地/北海道補給処(近文台弾薬支処,近文台燃料支処)"
		    },
    {
        "name": "上富良野駐屯地",
        "lat": 43.44938144245723,
        "lng": 142.4709646706787,
        "address": "〒071-0562 北海道空知郡上富良野町南町４丁目９４８",
        "affiliation": "北部方面隊/第2師団/第1特科団,第3施設団"
    },
		    {
		        "name": "多田分屯地",
		        "lat": 43.437026995449,
		        "lng": 142.51378474346222,
		        "address": "〒071-0500 北海道空知郡郡上富良野町字 上富良野国有無番地",
		        "affiliation": "北部方面隊/第2師団/上富良野駐屯地/北海道補給処(多田弾薬支処)"
		    },





    {
        "name": "美幌駐屯地",
        "lat": 43.821269460387605,
        "lng": 144.156988498889,
        "address": "〒092-0018 北海道網走郡美幌町田中",
        "affiliation": "北部方面隊/第5旅団/北部方面混成団"
    },
    {
        "name": "別海駐屯地",
        "lat": 43.4302828508321,
        "lng": 144.74600479921415,
        "address": "〒088-2576 北海道野付郡別海町西春別",
        "affiliation": "北部方面隊/第5旅団"
    },
    {
        "name": "釧路駐屯地",
        "lat": 43.01425687253746,
        "lng": 144.45288064188117,
        "address": "〒088-0604 北海道釧路郡釧路町別保１１２",
        "affiliation": "北部方面隊/第5旅団/第3施設団"
    },
		    {
		        "name": "標津分屯地",
		        "lat": 43.65229779379289,
		        "lng": 145.12438938948185,
		        "address": "〒086-1652 北海道標津郡標津町南２条西５丁目３−１",
		        "affiliation": "北部方面隊/第5旅団/釧路駐屯地"
		    },
				    {
				        "name": "羅臼分室",
				        "lat": 44.01461579482153,
				        "lng": 145.1841936985459,
				        "address": "〒086-1834 北海道目梨郡羅臼町礼文町",
				        "affiliation": "北部方面隊/第5旅団/釧路駐屯地/標津分屯地"
				    },
    {
        "name": "帯広駐屯地",
        "lat": 42.895736741180166,
        "lng": 143.17170785013857,
        "address": "〒080-0856 北海道帯広市南町南７線31番地",
        "affiliation": "北部方面隊/第5旅団/北部方面混成団"
    },
		    {
		        "name": "足寄分屯地",
		        "lat": 43.250707528005954,
		        "lng": 143.59446677035086,
		        "address": "〒089-3725 北海道足寄郡足寄町平和",
		        "affiliation": "北部方面隊/第5旅団/帯広駐屯地/北海道補給処(足寄弾薬支処)"
		    },
    {
        "name": "鹿追駐屯地",
        "lat": 43.14847538707804,
        "lng": 142.99753109889465,
        "address": "〒081-0294 北海道河東郡鹿追町笹川北１２線 10番地",
        "affiliation": "北部方面隊/第5旅団"
    },





    {
        "name": "北千歳駐屯地",
        "lat": 42.82986742397967,
        "lng": 141.62816563990467,
        "address": "〒066-0075 北海道千歳市北信濃７２４",
        "affiliation": "北部方面隊/第7師団/第1特科団"
    },
    {
        "name": "東千歳駐屯地",
        "lat": 42.83470187489033,
        "lng": 141.69848547038768,
        "address": "〒066-0006 北海道千歳市祝梅１０１６",
        "affiliation": "北部方面隊/第7師団/第1高射特科団"
    },
    {
        "name": "北恵庭駐屯地",
        "lat": 42.891600690475926,
        "lng": 141.56148799854182,
        "address": "〒061-1423 北海道恵庭市柏木町",
        "affiliation": "北部方面隊/第7師団,第11旅団/北部方面混成団"
    },
    {
        "name": "南恵庭駐屯地",
        "lat": 42.8636577439567,
        "lng": 141.5760359975239,
        "address": "〒061-1411 北海道恵庭市恵南63番地",
        "affiliation": "北部方面隊/第7師団/第3施設団"
    },
    {
        "name": "島松駐屯地",
        "lat": 42.910960906494594,
        "lng": 141.56250612287855,
        "address": "〒061-1356 北海道恵庭市西島松３０８",
        "affiliation": "北部方面隊/北海道補給処"
    },
		    {
		        "name": "日高分屯地",
		        "lat": 42.896722942539235,
		        "lng": 142.5188336707058,
		        "address": "〒055-2314 北海道沙流郡日高町千栄７５",
		        "affiliation": "北部方面隊/島松駐屯地/北海道補給処(日高弾薬支処)"
		    },
    {
        "name": "安平駐屯地",
        "lat": 42.81314645156219,
        "lng": 141.81875893150777,
        "address": "〒059-1511 北海道勇払郡安平町字安平番外地",
        "affiliation": "北部方面隊/北海道補給処(安平弾薬支処)"
    },
		    {
		        "name": "早来分屯地",
		        "lat": 42.786288793954476,
		        "lng": 141.81838098549795,
		        "address": "〒059-1503 北海道勇払郡安平町東早来番外地",
		        "affiliation": "北部方面隊/安平駐屯地/北海道補給処(早来燃料支処)"
		    },
    {
        "name": "白老駐屯地",
        "lat": 42.6025988423471,
        "lng": 141.3136139995794,
        "address": "〒059-0900 北海道白老郡白老町白老７８２",
        "affiliation": "北部方面隊/北海道補給処(白老弾薬支処)"
    },
    {
        "name": "幌別駐屯地",
        "lat": 42.4005999423778,
        "lng": 141.0925280995686,
        "address": "〒059-0024 北海道登別市緑町３丁目１",
        "affiliation": "北部方面隊/第3施設団"
    },
    {
        "name": "静内駐屯地",
        "lat": 42.30917444239623,
        "lng": 142.43972189958353,
        "address": "〒059-2562 北海道日高郡新ひだか町静内浦和１２５",
        "affiliation": "北部方面隊/第7施設団/第1高射特科団"
    },





    {
        "name": "岩見沢駐屯地",
        "lat": 43.21591916789858,
        "lng": 141.80094982510923,
        "address": "〒068-0822 北海道岩見沢市日の出台４丁目３１３",
        "affiliation": "北部方面隊/第3施設団"
    },
    {
        "name": "札幌駐屯地",
        "lat": 43.024854437064015,
        "lng": 141.34593023238375,
        "address": "〒064-0926 北海道札幌市中央区南２６条西１０丁目１−１",
        "affiliation": "北部方面隊/北部方面総監部"
    },
    {
        "name": "丘珠駐屯地",
        "lat": 43.11306181037477,
        "lng": 141.3774933703709,
        "address": "〒007-0880 北海道札幌市東区丘珠町１６１",
        "affiliation": "北部方面隊/第7師団,第11旅団"
    },
    {
        "name": "滝川駐屯地",
        "lat": 43.57467106965788,
        "lng": 141.90570387037576,
        "address": "〒073-0042 北海道滝川市泉町２３６",
        "affiliation": "北部方面隊/第11旅団/北部方面混成団"
    },
    {
        "name": "美唄駐屯地",
        "lat": 43.30650441343067,
        "lng": 141.87378114052837,
        "address": "〒072-0821 北海道美唄市南美唄町上１条4丁目",
        "affiliation": "北部方面隊/第1特科団"
    },
    {
        "name": "真駒内駐屯地",
        "lat": 43.00443819697287,
        "lng": 141.35747271266723,
        "address": "〒005-0008 北海道札幌市南区真駒内１７",
        "affiliation": "北部方面隊/第11旅団/北部方面混成団"
    },
    {
        "name": "倶知安駐屯地",
        "lat": 42.876413269891245,
        "lng": 140.75302956613965,
        "address": "〒044-0076 北海道虻田郡倶知安町高砂２３２−２",
        "affiliation": "北部方面隊/第3施設団/北部方面混成団"
    },
    {
        "name": "函館駐屯地",
        "lat": 41.78211404241888,
        "lng": 140.7672840704036,
        "address": "〒042-8567 北海道函館市広野町６−１８",
        "affiliation": "北部方面隊/第11旅団/北部方面混成団"
    },
    {
        "name": "苗穂分屯地",
        "lat": 43.07032596990114,
        "lng": 141.38653034407105,
        "address": "〒065-0043 北海道札幌市東区苗穂町７丁目１−１",
        "affiliation": "北部方面隊/島松駐屯地/北海道補給処(苗穂支処)"
    },










    {
        "name": "霞目駐屯地",
        "lat": 38.237583070492235,
        "lng": 140.92474152875437,
        "address": "〒984-0035 宮城県仙台市若林区霞目１丁目１−１",
        "affiliation": "東北方面隊"
    },
    {
        "name": "多賀城駐屯地",
        "lat": 38.29202698529809,
        "lng": 141.02947347132255,
        "address": "〒985-0834 宮城県多賀城市丸山２丁目１−１",
        "affiliation": "東北方面隊/第6師団/東北方面混成団"
    },
    {
        "name": "大和駐屯地",
        "lat": 38.45163944340373,
        "lng": 140.87566122845428,
        "address": "〒981-3621 宮城県黒川郡大和町吉岡西原２１−９",
        "affiliation": "東北方面隊/第6師団"
    },
    {
        "name": "仙台駐屯地",
        "lat": 38.26388129610295,
        "lng": 140.92074667014086,
        "address": "〒983-8580 宮城県仙台市宮城野区南目館１−１",
        "affiliation": "システム通信団/東北方面隊/東北方面総監部/東北方面混成団/東北補給処"
    },
		    {
		        "name": "反町分屯地",
		        "lat": 38.39575204320045,
		        "lng": 141.05606655733993,
		        "address": "〒981-0204 宮城県宮城郡松島町初原字樋の沢１６",
		        "affiliation": "東北方面隊/東北補給処(反町弾薬支処)"
		    },
    {
        "name": "船岡駐屯地",
        "lat": 38.046983946021925,
        "lng": 140.77317807014757,
        "address": "〒989-1606 宮城県柴田郡柴田町船岡大沼端１−１",
        "affiliation": "東北方面隊/第2施設団"
    },
    {
        "name": "神町駐屯地",
        "lat": 38.404511228709325,
        "lng": 140.39600047013764,
        "address": "〒999-3765 山形県東根市神町南３丁目１−１",
        "affiliation": "東北方面隊/第6師団"
    },
    {
        "name": "福島駐屯地",
        "lat": 37.71277626910106,
        "lng": 140.382946299017,
        "address": "〒960-2192 福島県福島市荒井原宿１",
        "affiliation": "東北方面隊/第6師団/第2施設団"
    },
    {
        "name": "郡山駐屯地",
        "lat": 37.39881714462196,
        "lng": 140.32445234187284,
        "address": "〒963-0201 福島県郡山市大槻町長右エ門林１",
        "affiliation": "東北方面隊/第6師団"
    },





    {
        "name": "青森駐屯地",
        "lat": 40.80986422252157,
        "lng": 140.71136197040008,
        "address": "〒038-0022 青森県青森市浪館近野４５",
        "affiliation": "東北方面隊/第9師団"
    },
    {
        "name": "弘前駐屯地",
        "lat": 40.567036641871496,
        "lng": 140.4612591855496,
        "address": "〒036-8144 青森県弘前市大字原ケ平字 山中１８−１１７",
        "affiliation": "東北方面隊/第9師団"
    },
    {
        "name": "八戸駐屯地",
        "lat": 40.555322394386764,
        "lng": 141.45220799990452,
        "address": "〒039-2241 青森県八戸市市川町桔梗野官地",
        "affiliation": "東北方面隊/第9師団/東北方面混成団"
    },
    {
        "name": "岩手駐屯地",
        "lat": 39.836521866483885,
        "lng": 141.109055570114,
        "address": "〒020-0601 岩手県滝沢市後２６８−４３３",
        "affiliation": "東北方面隊/第9師団/第2施設団"
    },
    {
        "name": "秋田駐屯地",
        "lat": 39.76213394867923,
        "lng": 140.08518267010544,
        "address": "〒011-0901 秋田県秋田市寺内将軍野１",
        "affiliation": "東北方面隊/第9師団"
    }
